{
  "last_updated": "2026-02-22T22:30:08.215194+00:00",
  "update_frequency": "weekly",
  "disclaimer": "Prices are approximate and may have changed. Always verify on official websites.",
  "secure_parking": [
    {
      "provider": "secure",
      "id": "480-queen-street",
      "name": "480 Queen Street Car Park",
      "address": "391 Adelaide Street, Brisbane",
      "lat": -27.464464,
      "lng": 153.030335,
      "hourly": 14.0,
      "daily": 55.0,
      "early_bird": 25.0,
      "night": null,
      "weekend": null,
      "scraped_at": "2026-02-22T22:30:05.458945+00:00",
      "source": "scraped+fallback+fallback+fallback"
    },
    {
      "provider": "secure",
      "id": "201-charlotte-street",
      "name": "201 Charlotte Street Car Park",
      "address": "201 Charlotte Street, Brisbane",
      "lat": -27.469674,
      "lng": 153.029153,
      "hourly": 13.0,
      "daily": 52.0,
      "early_bird": 24.0,
      "night": null,
      "weekend": null,
      "scraped_at": "2026-02-22T22:30:05.464004+00:00",
      "source": "scraped+fallback+fallback+fallback"
    },
    {
      "provider": "secure",
      "id": "post-office-square",
      "name": "Post Office Square Car Park",
      "address": "223-235 Adelaide Street, Brisbane",
      "lat": -27.466705,
      "lng": 153.027328,
      "hourly": 14.0,
      "daily": 56.0,
      "early_bird": 26.0,
      "night": null,
      "weekend": null,
      "scraped_at": "2026-02-22T22:30:05.468708+00:00",
      "source": "scraped+fallback+fallback+fallback"
    },
    {
      "provider": "secure",
      "id": "167-eagle-street",
      "name": "167 Eagle Street Car Park",
      "address": "167 Eagle Street, Brisbane",
      "lat": -27.466068,
      "lng": 153.030365,
      "hourly": 15.0,
      "daily": 58.0,
      "early_bird": 27.0,
      "night": null,
      "weekend": null,
      "scraped_at": "2026-02-22T22:30:05.473518+00:00",
      "source": "scraped+fallback+fallback+fallback"
    },
    {
      "provider": "secure",
      "id": "macarthur-central",
      "name": "MacArthur Central Car Park",
      "address": "246 Elizabeth Street, Brisbane",
      "lat": -27.468583,
      "lng": 153.028193,
      "hourly": 13.0,
      "daily": 55.0,
      "early_bird": 24.0,
      "night": null,
      "weekend": null,
      "scraped_at": "2026-02-22T22:30:05.478386+00:00",
      "source": "scraped+fallback+fallback+fallback"
    },
    {
      "provider": "secure",
      "id": "wintergarden",
      "name": "Wintergarden Car Park",
      "address": "162 Elizabeth Street, Brisbane",
      "lat": -27.46979,
      "lng": 153.026744,
      "hourly": 12.0,
      "daily": 50.0,
      "early_bird": 23.0,
      "night": null,
      "weekend": null,
      "scraped_at": "2026-02-22T22:30:05.483366+00:00",
      "source": "scraped+fallback+fallback+fallback"
    },
    {
      "provider": "secure",
      "id": "findex",
      "name": "Findex Car Park",
      "address": "120 Edward Street, Brisbane",
      "lat": -27.470104,
      "lng": 153.028256,
      "hourly": 14.0,
      "daily": 54.0,
      "early_bird": 25.0,
      "night": null,
      "weekend": null,
      "scraped_at": "2026-02-22T22:30:05.488456+00:00",
      "source": "scraped+fallback+fallback+fallback"
    }
  ],
  "wilson_parking": [
    {
      "provider": "wilson",
      "id": "420-george-street",
      "name": "420 George Street",
      "address": "420 George Street, Brisbane City",
      "lat": -27.4679,
      "lng": 153.025,
      "hourly": 15.0,
      "daily": 59.0,
      "early_bird": 25.0,
      "night": null,
      "weekend": null,
      "scraped_at": "2026-02-22T22:30:05.514450+00:00",
      "source": "error+fallback+fallback+fallback",
      "error": "HTTP 404"
    },
    {
      "provider": "wilson",
      "id": "myer-centre",
      "name": "Myer Centre",
      "address": "91 Queen Street, Brisbane City",
      "lat": -27.4702,
      "lng": 153.0271,
      "hourly": 12.0,
      "daily": 55.0,
      "early_bird": 22.0,
      "night": null,
      "weekend": null,
      "scraped_at": "2026-02-22T22:30:06.179307+00:00",
      "source": "error+fallback+fallback+fallback",
      "error": "HTTP 404"
    },
    {
      "provider": "wilson",
      "id": "king-george-square",
      "name": "King George Square",
      "address": "Ann Street, Brisbane City",
      "lat": -27.468,
      "lng": 153.0235,
      "hourly": 11.0,
      "daily": 45.0,
      "early_bird": 20.0,
      "night": null,
      "weekend": null,
      "scraped_at": "2026-02-22T22:30:06.527093+00:00",
      "source": "error+fallback+fallback+fallback",
      "error": "HTTP 404"
    },
    {
      "provider": "wilson",
      "id": "south-bank",
      "name": "South Bank",
      "address": "Grey Street, South Brisbane",
      "lat": -27.4785,
      "lng": 153.021,
      "hourly": 10.0,
      "daily": 40.0,
      "early_bird": null,
      "night": null,
      "weekend": null,
      "scraped_at": "2026-02-22T22:30:06.869937+00:00",
      "source": "error+fallback+fallback",
      "error": "HTTP 404"
    },
    {
      "provider": "wilson",
      "id": "treasury",
      "name": "Treasury Casino",
      "address": "William Street, Brisbane City",
      "lat": -27.473,
      "lng": 153.024,
      "hourly": 13.0,
      "daily": 50.0,
      "early_bird": null,
      "night": null,
      "weekend": null,
      "scraped_at": "2026-02-22T22:30:07.152803+00:00",
      "source": "error+fallback+fallback",
      "error": "HTTP 404"
    },
    {
      "provider": "wilson",
      "id": "waterfront-place",
      "name": "Waterfront Place",
      "address": "1 Eagle Street, Brisbane City",
      "lat": -27.467,
      "lng": 153.031,
      "hourly": 16.0,
      "daily": 65.0,
      "early_bird": 28.0,
      "night": null,
      "weekend": null,
      "scraped_at": "2026-02-22T22:30:07.466730+00:00",
      "source": "error+fallback+fallback+fallback",
      "error": "HTTP 404"
    },
    {
      "provider": "wilson",
      "id": "fortitude-valley",
      "name": "Fortitude Valley",
      "address": "McLachlan Street, Fortitude Valley",
      "lat": -27.457,
      "lng": 153.036,
      "hourly": 8.0,
      "daily": 35.0,
      "early_bird": null,
      "night": null,
      "weekend": null,
      "scraped_at": "2026-02-22T22:30:07.919730+00:00",
      "source": "error+fallback+fallback",
      "error": "HTTP 404"
    }
  ]
}